[
	{
		"name": "Phố Triều Khúc",
		"address": "10 P. Triều Khúc, Thanh Xuân Nam, Thanh Xuân, Hà Nội, Việt Nam",
		"phone": "0353051530",
		"openingHours": "8:00 AM - 6:00 PM",
		"coordinates": {
			"latitude": "20.9865782", 
			"longitude": "105.7977008"
		}
	},
	{
		"name": "Thuỵ Khuê",
		"address": "15C Đ. Thụy Khuê, Thuỵ Khuê, Tây Hồ, Hà Nội, Việt Nam",
		"phone": "0353051530",
		"openingHours": "8:00 AM - 6:00 PM",
		"coordinates": {
			"latitude": "21.0427208", 
			"longitude": "105.8292766"
		}
	},
	{
		"name": "Trần Quốc Hoàn",
		"address":
			"5 Ngõ 199 Trần Quốc Hoàn, Dịch Vọng Hậu, Cầu Giấy, Hà Nội, Việt Nam",
		"phone": "0353051530",
		"openingHours": "8:00 AM - 6:00 PM",
		"coordinates": {
			"latitude": "21.0414849", 
			"longitude": "105.779233617"
		}
	},
	{
		"name": "Nguyễn Tuân",
		"address": "Số 10 Nguyễn Tuân, Thanh Xuân, Hà Nội",
		"phone": "0353051530",
		"openingHours": "8:00 AM - 6:00 PM",
		"coordinates": {
			"latitude": "20.9946333", 
			"longitude": "105.7850362"
		}
	}
]
